timestamp(unix),attitude_roll(radians),attitude_pitch(radians),attitude_yaw(radians),rotation_rate_x(radians/s),rotation_rate_y(radians/s),rotation_rate_z(radians/s),gravity_x(G),gravity_y(G),gravity_z(G),user_acc_x(G),user_acc_y(G),user_acc_z(G),magnetic_field_x(microteslas),magnetic_field_y(microteslas),magnetic_field_z(microteslas),latitude(degree),longitude(degree),altitude(meter),speed(m/s),course(degree),timestamp(unix),User Mark
1528106661.167699,0.184214,0.702750,0.236087,-0.186612,-0.284644,-0.013619,0.139774,-0.646318,-0.750156,0.016751,-0.012083,-0.014477,24.854702,-25.166517,-14.114838,,,,,,,
,,,,,,,,,,,,,,,,52.333443,4.867822,-2.459876,-1.000000,-1.000000,1528106639.186521,
1528106661.187749,0.177749,0.699926,0.236785,-0.123363,-0.307767,0.005213,0.135244,-0.644161,-0.752837,0.010981,-0.004200,-0.005540,24.685322,-25.145985,-14.163391,,,,,,,
1528106661.207830,0.171661,0.697819,0.237543,-0.104477,-0.255102,0.013225,0.130889,-0.642548,-0.754982,0.012955,-0.007491,-0.009926,24.671238,-24.868843,-14.091949,,,,,,,
,,,,,,,,,,,,,,,,52.333443,4.867822,-2.459876,-1.000000,-1.000000,1528106648.186521,
1528106661.227910,0.167609,0.695723,0.238494,-0.115054,-0.128682,0.021290,0.128053,-0.640941,-0.756833,0.011275,-0.008779,0.007290,24.447048,-24.501062,-14.210358,,,,,,,
,,,,,,,,,,,,,,,,52.333429,4.867987,-2.459876,-1.000000,-1.000000,1528106661.240205,
1528106661.247960,0.165652,0.693170,0.239402,-0.134706,-0.040928,0.003344,0.126841,-0.638979,-0.758694,0.013128,-0.005553,0.008983,24.467518,-24.677906,-14.287842,,,,,,,
,,,,,,,,,,,,,,,,52.333429,4.867987,-2.459876,-1.000000,-1.000000,1528106661.250936,
1528106661.268041,0.165311,0.691289,0.239412,-0.063471,-0.033995,-0.027861,0.126780,-0.637531,-0.759921,0.004476,-0.008130,-0.008390,24.538422,-24.868523,-14.308533,,,,,,,
,,,,,,,,,,,,,,,,52.333429,4.867988,-2.459876,-1.000000,-1.000000,1528106661.272445,
1528106661.288121,0.164010,0.691235,0.239147,0.034253,-0.086883,-0.003425,0.125797,-0.637489,-0.760119,0.024349,-0.011376,-0.018674,24.321144,-24.607925,-14.311493,,,,,,,
,,,,,,,,,,,,,,,,52.333429,4.867988,-2.459876,-1.000000,-1.000000,1528106661.280668,
1528106661.308171,0.162025,0.692424,0.239278,0.063122,-0.116682,0.020304,0.124166,-0.638405,-0.759619,0.037852,0.012794,-0.009867,24.349873,-24.686235,-14.349640,,,,,,,
1528106661.328252,0.158846,0.693483,0.239762,0.035550,-0.162976,0.016503,0.121643,-0.639220,-0.759341,0.057739,0.005644,0.006061,24.382580,-25.044065,-14.695618,,,,,,,
1528106661.348332,0.156022,0.693656,0.239676,-0.021438,-0.124799,0.004252,0.119481,-0.639352,-0.759573,0.053035,0.009744,0.000845,24.392353,-25.033892,-14.984283,,,,,,,
1528106661.368383,0.153049,0.692042,0.242630,-0.140084,-0.015188,0.154324,0.117380,-0.638111,-0.760944,0.067069,0.026538,-0.005566,24.201859,-24.933819,-14.839630,,,,,,,
1528106661.388463,0.151035,0.688990,0.248914,-0.205600,0.160172,0.233699,0.116139,-0.635758,-0.763100,0.066127,0.020707,0.007363,24.079983,-25.109818,-14.627625,,,,,,,
1528106661.408544,0.152023,0.684969,0.255564,-0.254499,0.299168,0.210332,0.117279,-0.632649,-0.765506,0.069305,0.019001,0.017978,24.031532,-24.955786,-14.557617,,,,,,,
1528106661.428594,0.155579,0.679111,0.261902,-0.383949,0.415078,0.199775,0.120573,-0.628101,-0.768732,0.057665,0.020191,0.017588,23.904686,-24.835678,-14.598236,,,,,,,
1528106661.448674,0.160739,0.670407,0.269674,-0.524953,0.535214,0.249033,0.125408,-0.621305,-0.773467,0.053562,0.013670,0.007201,24.139278,-24.841196,-14.731995,,,,,,,
1528106661.468755,0.168600,0.659203,0.278559,-0.655211,0.778683,0.238102,0.132645,-0.612487,-0.779271,0.073929,-0.000382,-0.005366,24.089062,-24.787655,-14.819824,,,,,,,
1528106661.488805,0.185501,0.644938,0.286647,-0.823645,1.258759,0.157386,0.147392,-0.601149,-0.785426,0.048348,0.019957,0.012980,24.315044,-24.761209,-14.742981,,,,,,,
1528106661.508885,0.208887,0.626230,0.294080,-1.063955,1.389928,0.078145,0.168021,-0.586095,-0.792629,0.042596,-0.007152,0.009807,24.708778,-24.599380,-14.500000,,,,,,,
1528106661.528966,0.227969,0.603099,0.301853,-1.240497,1.039182,0.037674,0.186129,-0.567197,-0.802273,0.037245,-0.037554,-0.018039,25.131180,-24.227898,-14.168243,,,,,,,
1528106661.549016,0.244781,0.579413,0.305916,-1.133434,0.992690,-0.241686,0.202789,-0.547533,-0.811839,-0.122513,-0.032759,0.015086,25.570107,-23.630997,-14.251709,,,,,,,
1528106661.569097,0.271098,0.557422,0.301828,-0.928524,1.304931,-0.542488,0.227252,-0.529000,-0.817627,-0.160785,-0.088386,0.037506,25.964882,-23.269468,-14.275482,,,,,,,
1528106661.589177,0.293355,0.542136,0.293392,-0.343584,0.396907,-0.491204,0.247701,-0.515967,-0.820013,0.099101,-0.071527,-0.170649,26.639549,-22.651884,-14.104858,,,,,,,
1528106661.609241,0.303628,0.535258,0.289031,-0.292101,0.322366,-0.124976,0.257167,-0.510063,-0.820792,0.084966,0.010582,0.007468,27.023872,-22.587910,-13.953400,,,,,,,
1528106661.629322,0.301062,0.526495,0.295273,-0.629218,-0.129083,0.253719,0.256376,-0.502506,-0.825686,0.016115,0.099369,-0.033841,26.954285,-22.153366,-13.935394,,,,,,,
1528106661.649401,0.286513,0.514211,0.307196,-0.761319,-0.632759,0.337085,0.246062,-0.491848,-0.835187,-0.006850,-0.008472,-0.005328,26.648056,-21.970243,-14.524719,,,,,,,
1528106661.669451,0.261050,0.498916,0.320072,-1.010239,-1.148025,0.328001,0.226633,-0.478474,-0.848351,-0.020441,-0.001979,-0.146309,26.346512,-22.190502,-15.176208,,,,,,,
1528106661.689533,0.230975,0.476892,0.335462,-1.357718,-1.089386,0.431139,0.203384,-0.459020,-0.864832,-0.012924,-0.018458,-0.096914,25.891167,-22.266531,-16.116669,,,,,,,
1528106661.709614,0.202878,0.448679,0.353585,-1.653695,-0.960709,0.503182,0.181546,-0.433776,-0.882541,-0.004651,0.001113,-0.009961,25.084419,-21.846975,-17.389404,,,,,,,
1528106661.729663,0.175959,0.415991,0.371357,-1.766941,-0.980830,0.469592,0.160124,-0.404097,-0.900592,0.021761,-0.011843,-0.034299,24.196411,-21.341669,-18.313721,,,,,,,
1528106661.749743,0.150551,0.383275,0.387286,-1.692498,-0.969586,0.437379,0.139101,-0.373960,-0.916954,0.072325,0.015150,0.009910,23.907063,-20.830492,-19.294250,,,,,,,
,,,,,,,,,,,,,,,,52.333496,4.867836,-2.273345,-1.000000,-1.000000,1528106661.740410,
1528106661.769825,0.127098,0.355324,0.399412,-1.242292,-0.917083,0.307206,0.118838,-0.347894,-0.929971,0.080060,0.033609,0.135690,23.429520,-20.571606,-20.240051,,,,,,,
1528106661.789875,0.109658,0.342198,0.405165,-0.312264,-0.682138,0.099310,0.103093,-0.335558,-0.936361,0.069896,0.027514,0.247137,22.782776,-20.324619,-21.336090,,,,,,,
1528106661.809954,0.100149,0.346042,0.404571,0.428478,-0.340267,-0.055705,0.094055,-0.339177,-0.936009,0.059799,-0.002848,0.207966,22.584389,-20.257818,-21.677643,,,,,,,
1528106661.830035,0.096051,0.358410,0.402964,0.707884,-0.234244,0.038167,0.089809,-0.350786,-0.932139,0.000157,-0.020445,0.037257,22.407936,-20.443911,-21.627472,,,,,,,
1528106661.850085,0.090052,0.376081,0.406302,0.974194,-0.200065,0.345528,0.083645,-0.367278,-0.926342,-0.056789,0.000563,0.085690,22.141598,-20.666027,-21.407593,,,,,,,
1528106661.870167,0.086475,0.399731,0.413734,1.230854,0.056949,0.462436,0.079559,-0.389170,-0.917723,-0.049346,0.034037,0.099898,21.869995,-21.466137,-20.987488,,,,,,,
1528106661.890246,0.087322,0.427723,0.420629,1.451740,0.240750,0.396567,0.079354,-0.414800,-0.906446,-0.045999,0.069478,0.138120,21.804314,-21.976446,-20.461304,,,,,,,
1528106661.910296,0.093737,0.461460,0.423370,1.801036,0.454368,0.186867,0.083809,-0.445256,-0.891472,-0.010506,0.098424,0.160866,21.840801,-22.831820,-19.702271,,,,,,,
1528106661.930377,0.103620,0.501486,0.420527,2.072636,0.355489,-0.005172,0.090699,-0.480729,-0.872165,0.029388,0.060365,0.043354,21.901360,-23.792404,-18.770874,,,,,,,
1528106661.950458,0.109482,0.536079,0.411331,1.375053,-0.266039,-0.382017,0.093936,-0.510769,-0.854570,0.110166,0.050671,-0.252958,21.956112,-24.654106,-17.711365,,,,,,,
1528106661.970507,0.112522,0.549151,0.396440,0.425560,-0.086421,-0.608711,0.095775,-0.521964,-0.847573,0.067326,0.021384,-0.137198,22.222244,-24.718000,-17.112640,,,,,,,
1528106661.990588,0.119256,0.549127,0.384937,-0.157747,0.013441,-0.392618,0.101482,-0.521943,-0.846922,-0.109477,-0.039520,-0.032534,22.703903,-24.793018,-16.987671,,,,,,,
1528106662.010669,0.119642,0.539819,0.380121,-0.597522,-0.160092,-0.180582,0.102384,-0.513981,-0.851669,-0.062635,-0.027905,-0.106537,22.833324,-24.545788,-17.262421,,,,,,,
1528106662.030720,0.117028,0.523306,0.381539,-0.932549,-0.098108,0.035100,0.101135,-0.499746,-0.860247,-0.029739,-0.004496,-0.058363,22.903828,-24.142498,-17.401398,,,,,,,
1528106662.050799,0.108314,0.505997,0.386612,-0.767583,-0.450632,0.153939,0.094556,-0.484680,-0.869565,0.029727,-0.021088,-0.015826,22.685333,-23.740044,-17.981445,,,,,,,
1528106662.070880,0.094861,0.498357,0.391233,-0.140921,-0.537247,0.144998,0.083198,-0.477983,-0.874420,0.037895,-0.007079,0.155380,22.636295,-23.699028,-18.342102,,,,,,,
1528106662.090930,0.087876,0.504464,0.393390,0.539925,-0.140023,0.108360,0.076831,-0.483338,-0.872055,0.041348,-0.018218,0.198288,22.424252,-23.518032,-18.747284,,,,,,,
1528106662.111011,0.088533,0.520320,0.395303,0.854790,0.170994,0.182393,0.076716,-0.497158,-0.864262,-0.025477,-0.018040,0.115513,22.140713,-24.024372,-18.601135,,,,,,,
1528106662.131091,0.090056,0.536826,0.396686,0.751217,0.028702,0.044431,0.077284,-0.511411,-0.855854,-0.037016,0.026273,0.054950,22.080757,-24.067001,-18.030029,,,,,,,
1528106662.151141,0.090942,0.547407,0.392164,0.400525,-0.106844,-0.247391,0.077546,-0.520475,-0.850348,0.023528,0.029508,-0.016626,22.131062,-24.370018,-17.622406,,,,,,,
1528106662.171221,0.092854,0.549474,0.383429,-0.025962,-0.225742,-0.418032,0.079072,-0.522239,-0.849125,-0.022126,0.011527,-0.084316,22.197128,-24.541088,-17.343536,,,,,,,
1528106662.191303,0.091289,0.544108,0.373862,-0.329125,-0.338334,-0.416979,0.077997,-0.517655,-0.852026,0.018408,-0.005508,-0.014932,22.363060,-24.569975,-17.481903,,,,,,,
1528106662.211352,0.089123,0.536592,0.366200,-0.314622,-0.261019,-0.332897,0.076496,-0.511210,-0.856045,0.029339,-0.104864,0.064144,22.359413,-23.920383,-17.703125,,,,,,,
1528106662.231433,0.087818,0.532097,0.361245,-0.133809,-0.199626,-0.150567,0.075579,-0.507342,-0.858424,0.036756,-0.137663,0.070277,22.457302,-23.767155,-18.150421,,,,,,,
1528106662.251513,0.083227,0.529745,0.360815,-0.138459,-0.236063,-0.024539,0.071736,-0.505313,-0.859949,0.024913,-0.062482,0.019907,22.618599,-23.839680,-18.155762,,,,,,,
1528106662.271564,0.079412,0.524416,0.358998,-0.328641,-0.242842,-0.174572,0.068668,-0.500707,-0.862888,0.010373,0.004415,0.008640,22.155968,-23.820995,-18.401245,,,,,,,
1528106662.291645,0.076865,0.515649,0.352717,-0.470522,-0.314680,-0.372541,0.066805,-0.493100,-0.867404,0.021849,0.008099,-0.013501,22.193752,-23.519691,-18.782532,,,,,,,
1528106662.311724,0.075574,0.505897,0.343603,-0.462059,-0.284634,-0.458960,0.066045,-0.484592,-0.872243,0.002254,0.016376,0.005818,22.195721,-23.180647,-18.998688,,,,,,,
1528106662.331774,0.074129,0.497293,0.333566,-0.370280,-0.335434,-0.473113,0.065091,-0.477048,-0.876463,-0.004269,0.017407,0.028395,22.340061,-23.090666,-19.568390,,,,,,,
1528106662.351856,0.071398,0.490572,0.324260,-0.274204,-0.369026,-0.414343,0.062924,-0.471131,-0.879816,-0.007108,0.028260,0.030634,22.610462,-22.482252,-20.207123,,,,,,,
1528106662.371937,0.068572,0.485226,0.315952,-0.219409,-0.290364,-0.373644,0.060609,-0.466408,-0.882490,-0.019929,0.044838,-0.022524,22.399639,-21.737461,-20.453644,,,,,,,
1528106662.391986,0.068331,0.480416,0.308759,-0.249133,-0.125474,-0.316368,0.060549,-0.462148,-0.884733,-0.000292,0.027486,0.040571,22.566166,-21.768663,-20.733673,,,,,,,
1528106662.412066,0.070354,0.474305,0.302851,-0.301830,-0.024003,-0.277916,0.062536,-0.456720,-0.887409,0.026041,0.039988,0.048496,22.670513,-21.434017,-20.796478,,,,,,,
1528106662.432148,0.071675,0.467985,0.297148,-0.272585,-0.105255,-0.257678,0.063914,-0.451089,-0.890187,0.032506,0.048638,0.006444,22.677872,-21.123158,-21.009735,,,,,,,
1528106662.452198,0.070231,0.464065,0.293191,-0.128263,-0.177083,-0.174990,0.062752,-0.447587,-0.892036,0.016518,0.040803,-0.001076,22.677830,-21.020632,-21.218903,,,,,,,
1528106662.472277,0.068664,0.461736,0.289612,-0.109253,-0.145857,-0.166025,0.061426,-0.445503,-0.893171,0.013602,0.034202,-0.007327,22.754387,-21.020008,-21.327454,,,,,,,
1528106662.492358,0.068064,0.459039,0.286459,-0.128289,-0.067732,-0.144418,0.060970,-0.443087,-0.894403,0.005695,0.016634,-0.015906,22.698109,-20.514318,-21.323486,,,,,,,
1528106662.512408,0.068356,0.455979,0.283754,-0.147956,-0.047501,-0.128491,0.061325,-0.440342,-0.895733,0.016343,0.011494,-0.005420,22.800983,-20.771761,-21.513245,,,,,,,
1528106662.532490,0.068245,0.452759,0.281394,-0.151209,-0.075390,-0.112631,0.061322,-0.437448,-0.897150,0.015003,0.002221,-0.001623,22.823841,-20.440115,-21.545685,,,,,,,
1528106662.552569,0.066770,0.449506,0.279311,-0.147595,-0.155758,-0.103401,0.060092,-0.434521,-0.898654,0.008404,-0.008442,-0.006848,22.795033,-20.405657,-21.586731,,,,,,,
1528106662.572619,0.062130,0.448187,0.277174,0.034470,-0.380641,-0.121706,0.055957,-0.433333,-0.899495,0.006955,-0.000368,-0.049907,22.547287,-20.501421,-21.773071,,,,,,,
1528106662.592700,0.055234,0.450631,0.274979,0.162803,-0.406500,-0.069994,0.049695,-0.435534,-0.898799,0.002338,0.001879,-0.003727,22.327389,-20.309433,-21.819611,,,,,,,
1528106662.612794,0.048699,0.453729,0.274108,0.128226,-0.339192,-0.004756,0.043754,-0.438320,-0.897753,0.001946,0.008785,0.011095,22.201668,-20.354342,-22.114380,,,,,,,
1528106662.632844,0.043111,0.455447,0.274744,0.058242,-0.239986,0.043107,0.038704,-0.439864,-0.897230,0.013175,0.007079,0.009611,22.130692,-20.510994,-22.144897,,,,,,,
1528106662.652925,0.037957,0.455898,0.275533,0.024113,-0.255242,0.032977,0.034072,-0.440269,-0.897219,0.016801,0.017906,-0.016767,21.810463,-20.461802,-22.254822,,,,,,,
1528106662.673005,0.032145,0.457600,0.276537,0.126052,-0.280230,0.050126,0.028833,-0.441796,-0.896652,0.014090,0.022882,-0.011628,21.746330,-20.488468,-22.209900,,,,,,,
1528106662.693056,0.025639,0.460812,0.277781,0.165853,-0.314244,0.061122,0.022962,-0.444675,-0.895397,0.006427,0.008152,0.009182,21.541363,-20.328741,-22.413727,,,,,,,
1528106662.713136,0.018948,0.463395,0.278803,0.098519,-0.306161,0.033596,0.016949,-0.446988,-0.894379,0.014347,-0.008639,0.013184,21.371952,-20.537457,-22.482727,,,,,,,
1528106662.733217,0.014361,0.464220,0.279167,0.012147,-0.163150,0.000165,0.012841,-0.447725,-0.894079,-0.023431,-0.003096,0.006200,21.066990,-20.591908,-22.625824,,,,,,,
1528106662.753267,0.012569,0.463301,0.278893,-0.061140,-0.080070,-0.019526,0.011244,-0.446903,-0.894511,-0.017454,-0.003445,0.010341,21.317875,-20.482122,-22.591919,,,,,,,
1528106662.773347,0.011588,0.462492,0.278251,-0.009495,-0.053979,-0.040160,0.010371,-0.446179,-0.894883,-0.028208,0.008496,0.008271,21.253235,-20.548767,-22.956909,,,,,,,
1528106662.793428,0.010512,0.463439,0.277315,0.071442,-0.108069,-0.044831,0.009403,-0.447027,-0.894471,-0.018634,0.022466,0.012711,21.218044,-20.562241,-22.756531,,,,,,,
1528106662.813478,0.008002,0.465344,0.277033,0.098935,-0.143229,0.004538,0.007151,-0.448730,-0.893638,-0.018046,0.021102,0.022972,21.161968,-20.754808,-22.724030,,,,,,,
1528106662.833558,0.004735,0.467070,0.277322,0.072351,-0.198088,0.011403,0.004228,-0.450272,-0.892881,-0.009401,0.012574,0.011640,21.103611,-20.777962,-22.790253,,,,,,,
1528106662.853639,-0.001760,0.466275,0.277796,-0.061260,-0.273018,0.001877,-0.001572,-0.449562,-0.893247,-0.055435,0.069420,-0.003969,20.868397,-20.717413,-22.987335,,,,,,,
1528106662.873689,-0.003599,0.466497,0.277923,0.087241,0.042132,-0.012770,-0.003215,-0.449760,-0.893143,0.013591,-0.032158,0.062378,20.872540,-20.727892,-22.980103,,,,,,,
1528106662.893770,-0.003036,0.468219,0.277957,0.044334,-0.035347,0.021598,-0.002709,-0.451297,-0.892369,-0.002387,0.013782,0.014211,20.712036,-20.682932,-22.895447,,,,,,,
1528106662.913820,-0.004194,0.468471,0.278117,-0.001061,-0.062488,-0.024052,-0.003742,-0.451522,-0.892252,0.026279,-0.011719,0.029352,20.653198,-20.664045,-22.719879,,,,,,,
1528106662.933900,-0.003692,0.467772,0.277096,-0.026471,0.074537,-0.036443,-0.003295,-0.450898,-0.892569,-0.006608,0.017839,-0.011209,20.640167,-20.486111,-22.898041,,,,,,,
1528106662.953981,-0.000097,0.467415,0.277212,-0.038639,0.189168,0.016486,-0.000087,-0.450580,-0.892736,0.008433,0.011203,-0.006755,20.655144,-20.846886,-22.910614,,,,,,,
1528106662.974031,-0.000704,0.467467,0.277050,0.059006,-0.185338,-0.041129,-0.000629,-0.450626,-0.892712,0.041415,-0.014874,-0.017414,20.847351,-20.738268,-23.004425,,,,,,,
1528106662.994111,-0.006747,0.470205,0.276321,0.160683,-0.353970,-0.016217,-0.006014,-0.453069,-0.891455,0.030795,0.013113,-0.021769,20.900414,-20.537428,-23.212341,,,,,,,
1528106663.014192,-0.011468,0.472990,0.277310,0.107295,-0.107766,0.086173,-0.010209,-0.455550,-0.890151,0.001862,0.010451,-0.020890,20.713982,-20.743313,-23.097565,,,,,,,
1528106663.034242,-0.013319,0.474453,0.279891,0.087171,-0.012500,0.100370,-0.011847,-0.456852,-0.889464,-0.020898,-0.001904,-0.021059,20.576244,-20.729261,-23.088379,,,,,,,
1528106663.054323,-0.015371,0.476873,0.281437,0.141277,-0.128975,0.043658,-0.013656,-0.459003,-0.888329,-0.005143,-0.010571,0.000924,20.411297,-20.566513,-23.226196,,,,,,,
1528106663.074403,-0.017264,0.479355,0.281992,0.073003,-0.034060,0.045497,-0.015318,-0.461207,-0.887160,0.020246,0.020213,0.038573,20.329597,-20.760212,-23.167358,,,,,,,
1528106663.094453,-0.018506,0.478404,0.285316,-0.086172,0.045242,0.189559,-0.016427,-0.460363,-0.887578,-0.024802,0.041952,0.006292,20.307899,-20.776115,-23.085815,,,,,,,
1528106663.114534,-0.019016,0.477173,0.289294,-0.013373,0.028595,0.132557,-0.016890,-0.459270,-0.888136,-0.047090,0.050426,0.005888,20.291283,-21.045486,-23.131531,,,,,,,
1528106663.134614,-0.020931,0.477695,0.289658,0.017025,-0.120258,-0.064822,-0.018586,-0.459733,-0.887862,-0.007964,0.049287,0.018661,20.228092,-20.990223,-23.212372,,,,,,,
1528106663.154664,-0.019876,0.476171,0.286274,-0.138286,0.073681,-0.187634,-0.017664,-0.458380,-0.888580,0.003244,0.076345,0.046173,20.223354,-21.062792,-23.126495,,,,,,,
1528106663.174745,-0.013354,0.472266,0.281596,-0.195876,0.228695,-0.211018,-0.011892,-0.454905,-0.890460,-0.001307,0.066066,0.063723,20.352829,-20.899776,-23.212463,,,,,,,
1528106663.194826,-0.005698,0.472253,0.277589,0.150780,0.295527,-0.149725,-0.005075,-0.454894,-0.890531,0.010339,-0.012620,0.019376,20.570389,-20.864597,-23.081818,,,,,,,
1528106663.214876,-0.001641,0.476947,0.275908,0.220345,0.102038,-0.038651,-0.001458,-0.459069,-0.888399,-0.025275,-0.017829,0.001955,20.664330,-20.724308,-22.972473,,,,,,,
1528106663.234956,0.001294,0.479190,0.275830,0.039623,0.228319,0.006949,0.001148,-0.461061,-0.887367,-0.019321,0.006822,0.020302,20.940968,-20.989285,-22.885620,,,,,,,
1528106663.255037,0.009543,0.477727,0.276589,-0.109667,0.502753,0.039839,0.008475,-0.459762,-0.888001,-0.049582,0.038787,0.009141,20.924599,-20.643356,-22.742554,,,,,,,
1528106663.275087,0.018143,0.475007,0.276989,-0.154059,0.355553,-0.023588,0.016133,-0.457344,-0.889143,-0.030141,0.103279,-0.023516,21.168877,-20.562719,-22.509308,,,,,,,
1528106663.295167,0.023339,0.471736,0.273761,-0.151809,0.096080,-0.231553,0.020788,-0.454433,-0.890538,0.019663,0.084515,0.008808,21.580086,-20.557457,-22.260712,,,,,,,
1528106663.315248,0.027643,0.469281,0.267333,-0.100329,0.099639,-0.310107,0.024652,-0.452245,-0.891552,0.003898,0.045660,0.058087,21.513348,-20.434389,-22.210571,,,,,,,
1528106663.335298,0.034451,0.467277,0.260704,-0.075783,0.246683,-0.288660,0.030752,-0.450457,-0.892268,0.017725,-0.006468,0.047374,21.944466,-20.409672,-22.252625,,,,,,,
1528106663.355379,0.041735,0.465439,0.255150,-0.084651,0.209114,-0.249377,0.037285,-0.448815,-0.892846,0.038963,-0.073920,0.005959,21.817978,-20.009586,-22.112274,,,,,,,
1528106663.375459,0.048265,0.463224,0.248990,-0.087058,0.168347,-0.291371,0.043162,-0.446834,-0.893574,0.052724,-0.141178,0.003209,21.975521,-19.732130,-22.148407,,,,,,,
1528106663.395509,0.051365,0.460706,0.245017,-0.153679,-0.022881,-0.113440,0.045989,-0.444581,-0.894557,0.039857,-0.158309,0.002070,22.425552,-19.749329,-21.936737,,,,,,,
1528106663.415590,0.051868,0.456064,0.243967,-0.270680,0.081340,-0.085384,0.046546,-0.440418,-0.896585,0.024698,-0.078671,-0.013281,22.553112,-19.620047,-22.188568,,,,,,,
1528106663.435670,0.054875,0.449494,0.242774,-0.322902,0.118495,-0.051563,0.049399,-0.434510,-0.899311,0.007165,0.025544,-0.020764,22.509811,-19.655218,-22.239258,,,,,,,
1528106663.455720,0.054280,0.444776,0.242775,-0.194296,-0.139975,0.010635,0.048975,-0.430255,-0.901377,0.035742,0.021579,-0.016546,22.543495,-19.068338,-22.246338,,,,,,,
1528106663.475801,0.048975,0.443121,0.243179,-0.040546,-0.311462,-0.003436,0.044227,-0.428761,-0.902334,0.000847,0.027348,0.001227,22.607304,-19.273285,-22.452454,,,,,,,
1528106663.495881,0.043732,0.443185,0.242765,0.009614,-0.199627,-0.034315,0.039495,-0.428819,-0.902526,-0.011907,0.021104,0.007659,22.511974,-19.258110,-22.691284,,,,,,,
1528106663.515932,0.042135,0.444839,0.242492,0.149520,-0.029230,0.021836,0.038024,-0.430313,-0.901878,-0.011916,0.042526,-0.015221,22.252316,-19.479219,-22.625214,,,,,,,
1528106663.536012,0.040158,0.449326,0.243770,0.232691,-0.156189,0.045685,0.036162,-0.434358,-0.900014,0.051714,0.032518,0.008397,22.330593,-19.534868,-22.880157,,,,,,,
1528106663.556093,0.033890,0.453917,0.242494,0.266195,-0.446493,-0.074314,0.030453,-0.438489,-0.898220,0.015934,0.159864,0.008480,22.528877,-19.685120,-22.839081,,,,,,,
1528106663.576143,0.027143,0.460882,0.238543,0.390121,-0.398483,-0.212746,0.024308,-0.444739,-0.895330,0.061309,0.069723,-0.005137,22.124130,-19.863661,-23.062073,,,,,,,
1528106663.596223,0.023576,0.468204,0.232949,0.352946,-0.257256,-0.230607,0.021037,-0.451284,-0.892132,0.004186,0.029943,-0.001041,22.167645,-19.994240,-23.035889,,,,,,,
1528106663.616312,0.021459,0.473645,0.229186,0.225539,-0.186316,-0.130086,0.019095,-0.456133,-0.889706,-0.002799,0.005114,0.010891,22.148609,-19.906214,-22.735443,,,,,,,
1528106663.636361,0.018576,0.476089,0.227571,0.077137,-0.175559,-0.036574,0.016509,-0.458307,-0.888640,-0.008208,-0.043021,0.024291,22.054638,-19.882339,-23.017822,,,,,,,
1528106663.656441,0.017402,0.474019,0.228500,-0.210420,0.077539,0.069438,0.015483,-0.456466,-0.889605,-0.005626,-0.119904,0.020205,21.931816,-19.819210,-23.017792,,,,,,,
1528106663.676522,0.021811,0.468105,0.230159,-0.282269,0.294622,0.038734,0.019463,-0.451196,-0.892212,0.017493,-0.169409,-0.012344,21.898788,-19.668760,-22.888092,,,,,,,
1528106663.696573,0.026394,0.462088,0.230204,-0.296610,0.148709,-0.024322,0.023623,-0.445818,-0.894811,-0.024707,0.035204,0.004385,22.094852,-19.518642,-23.008789,,,,,,,
1528106663.716653,0.028483,0.457005,0.228682,-0.237614,0.026894,-0.123813,0.025557,-0.441262,-0.897014,0.011690,0.000100,0.030894,22.110214,-19.200359,-22.981720,,,,,,,
1528106663.736733,0.030060,0.452033,0.225030,-0.269949,0.003058,-0.184270,0.027037,-0.436795,-0.899154,-0.019789,0.018277,0.017181,22.126305,-19.319443,-23.262360,,,,,,,
1528106663.756783,0.031816,0.445672,0.221858,-0.373896,0.063425,-0.147737,0.028704,-0.431064,-0.901864,-0.039003,0.025333,0.039819,22.265541,-19.061754,-23.041351,,,,,,,
1528106663.776865,0.034219,0.437812,0.218971,-0.370264,0.032359,-0.163918,0.030986,-0.423959,-0.905151,-0.009440,-0.007758,0.063033,22.329502,-18.787819,-23.208374,,,,,,,
1528106663.796944,0.034262,0.430623,0.214774,-0.345506,-0.165802,-0.235352,0.031128,-0.417437,-0.908172,-0.022217,0.003970,0.066985,22.471451,-18.619198,-23.536774,,,,,,,
1528106663.816994,0.030621,0.422566,0.209274,-0.451041,-0.364890,-0.278403,0.027923,-0.410102,-0.911611,-0.049346,0.001274,0.057516,22.428196,-18.298632,-23.756439,,,,,,,
1528106663.837075,0.027319,0.411667,0.203021,-0.559795,-0.218829,-0.326001,0.025034,-0.400138,-0.916113,-0.037668,-0.017129,0.055364,22.431335,-18.148945,-24.157867,,,,,,,
1528106663.857157,0.025744,0.401155,0.196627,-0.484029,-0.231134,-0.284483,0.023698,-0.390482,-0.920305,-0.058305,0.010157,0.055513,22.391693,-17.722401,-24.460693,,,,,,,
1528106663.877207,0.021087,0.391917,0.191779,-0.457106,-0.409931,-0.203810,0.019487,-0.381961,-0.923973,-0.072511,0.051410,0.057685,22.441074,-17.419451,-24.692932,,,,,,,
1528106663.897286,0.013453,0.383496,0.188767,-0.389904,-0.404078,-0.172997,0.012476,-0.374164,-0.927278,-0.052957,0.013691,0.080476,22.023129,-17.149023,-24.743317,,,,,,,
1528106663.917367,0.007280,0.377385,0.182864,-0.255423,-0.435327,-0.340637,0.006767,-0.368491,-0.929606,-0.011360,-0.008356,0.040904,21.888123,-16.712404,-25.086609,,,,,,,
1528106663.937418,0.000430,0.372644,0.174401,-0.237652,-0.523130,-0.424387,0.000400,-0.364079,-0.931367,-0.021701,0.018773,0.013505,21.814713,-16.400221,-25.452545,,,,,,,
1528106663.957497,-0.005499,0.367125,0.164705,-0.313002,-0.406841,-0.466394,-0.005133,-0.358933,-0.933349,-0.008905,-0.001250,0.003127,21.737469,-15.936872,-25.913605,,,,,,,
1528106663.977578,-0.007676,0.358846,0.154758,-0.482834,-0.219394,-0.462061,-0.007187,-0.351194,-0.936275,0.009399,-0.016817,-0.005818,21.447227,-15.592398,-26.043945,,,,,,,
1528106663.997628,-0.007066,0.347928,0.144689,-0.573525,-0.109639,-0.477535,-0.006643,-0.340951,-0.940057,0.034979,-0.027457,-0.002585,21.575985,-15.326942,-26.208893,,,,,,,
1528106664.017709,-0.005072,0.336705,0.134305,-0.548001,-0.056931,-0.484425,-0.004788,-0.330379,-0.943836,0.045345,-0.018162,-0.013989,21.691650,-14.638168,-26.516632,,,,,,,
1528106664.037790,-0.003419,0.326709,0.124343,-0.472732,-0.103551,-0.469858,-0.003238,-0.320927,-0.947098,0.050555,-0.009792,-0.024429,21.745800,-14.489803,-26.879211,,,,,,,
1528106664.057839,-0.002852,0.319228,0.114489,-0.315849,-0.141011,-0.460673,-0.002708,-0.313833,-0.949474,0.045066,0.003470,-0.021824,21.817986,-13.918640,-26.911407,,,,,,,
1528106664.077920,-0.002409,0.314962,0.105703,-0.163649,-0.087364,-0.384686,-0.002290,-0.309780,-0.950805,0.037126,0.009151,-0.040268,21.968391,-13.512205,-27.076874,,,,,,,
1528106664.098001,-0.001641,0.312718,0.099145,-0.107236,-0.066554,-0.275794,-0.001562,-0.307646,-0.951499,0.037130,0.008100,-0.052742,21.903709,-13.311056,-26.999023,,,,,,,
1528106664.118051,-0.001951,0.310538,0.093730,-0.099531,-0.120093,-0.264225,-0.001857,-0.305571,-0.952167,0.051189,0.003569,-0.048794,21.882168,-13.125517,-27.269257,,,,,,,
1528106664.138131,-0.002898,0.309413,0.087783,-0.032399,-0.156066,-0.289297,-0.002760,-0.304500,-0.952508,0.036924,0.015147,-0.031760,21.719673,-13.209736,-27.282745,,,,,,,
1528106664.158211,-0.003398,0.309171,0.081881,-0.014832,-0.085183,-0.271567,-0.003236,-0.304269,-0.952580,0.015367,0.026193,-0.018535,21.690353,-12.871675,-27.362305,,,,,,,
1528106664.178262,-0.002856,0.308403,0.077327,-0.049676,-0.017870,-0.185998,-0.002721,-0.303537,-0.952815,-0.000422,0.025614,-0.002705,22.040627,-12.799332,-27.261871,,,,,,,
1528106664.198343,-0.002164,0.307477,0.074209,-0.021164,-0.035873,-0.140803,-0.002063,-0.302655,-0.953098,-0.003019,0.009839,0.009570,21.869633,-12.777897,-27.253693,,,,,,,
1528106664.218423,-0.002701,0.309008,0.071420,0.139029,-0.102250,-0.124247,-0.002573,-0.304114,-0.952632,-0.024511,0.032294,0.037623,21.648350,-12.576202,-27.353363,,,,,,,
1528106664.238473,-0.005416,0.312677,0.069423,0.197170,-0.200441,-0.088770,-0.005153,-0.307607,-0.951499,-0.043766,0.034688,0.051063,21.699455,-12.613626,-27.361206,,,,,,,
1528106664.258554,-0.010354,0.316252,0.067714,0.177554,-0.323859,-0.088621,-0.009840,-0.311007,-0.950356,-0.055925,0.040347,0.077081,21.634705,-12.631817,-27.361725,,,,,,,
1528106664.278635,-0.016909,0.320851,0.066113,0.262060,-0.361827,-0.046069,-0.016045,-0.315374,-0.948831,-0.094230,0.031988,0.106195,21.491596,-12.763191,-27.468384,,,,,,,
1528106664.298684,-0.024707,0.325526,0.065580,0.187394,-0.434187,-0.048445,-0.023407,-0.319808,-0.947193,-0.096649,0.071547,0.141468,21.410828,-12.834351,-27.629822,,,,,,,
1528106664.318764,-0.036071,0.327667,0.065180,0.072056,-0.591514,-0.019678,-0.034145,-0.321835,-0.946179,-0.107060,0.110455,0.188382,21.166958,-13.007740,-27.779755,,,,,,,
1528106664.338845,-0.049487,0.328513,0.064914,0.027477,-0.745114,0.015318,-0.046822,-0.322636,-0.945364,-0.108513,0.116566,0.196646,20.724922,-12.951326,-28.090881,,,,,,,
1528106664.358896,-0.067263,0.327408,0.067230,-0.115009,-0.894026,0.144404,-0.063642,-0.321590,-0.944737,-0.160967,0.155178,0.216451,20.236290,-12.861019,-28.407257,,,,,,,
1528106664.378977,-0.088606,0.322098,0.069058,-0.339136,-1.116490,0.067680,-0.083939,-0.316557,-0.944852,-0.137130,0.137251,0.166867,19.475521,-12.690869,-28.693756,,,,,,,
1528106664.399056,-0.114343,0.313591,0.069564,-0.447331,-1.360599,0.085350,-0.108530,-0.308477,-0.945020,-0.152426,0.115621,0.161405,18.845734,-12.751028,-29.375031,,,,,,,
1528106664.419106,-0.145239,0.304364,0.072766,-0.403977,-1.578887,0.323326,-0.138077,-0.299687,-0.943993,-0.207275,0.191899,0.202965,18.043327,-12.455415,-29.614990,,,,,,,
1528106664.439188,-0.186821,0.295426,0.084843,-0.308294,-2.119373,0.820215,-0.177689,-0.291147,-0.940032,-0.222289,0.298822,0.207152,16.973354,-12.374462,-30.247101,,,,,,,
1528106664.459238,-0.243298,0.287237,0.105163,-0.092593,-2.728741,1.124464,-0.231035,-0.283303,-0.930785,-0.166381,0.350061,0.232589,15.429512,-12.180218,-30.911011,,,,,,,
1528106664.479317,-0.309949,0.282098,0.130192,0.165997,-3.133114,1.252713,-0.292954,-0.278372,-0.914706,-0.168609,0.468969,0.262331,13.112711,-12.366283,-31.529327,,,,,,,
1528106664.499398,-0.388457,0.277605,0.158943,0.316606,-3.749419,1.448043,-0.364259,-0.274053,-0.890061,-0.119322,0.470693,0.200867,10.734291,-12.675159,-32.151367,,,,,,,
1528106664.519449,-0.480563,0.270933,0.193904,0.419266,-4.300615,1.828302,-0.445415,-0.267631,-0.854387,-0.020634,0.512168,0.244066,7.876261,-13.147050,-32.558105,,,,,,,
1528106664.539530,-0.580343,0.252854,0.235734,0.077351,-4.455087,2.426911,-0.530875,-0.250169,-0.809682,0.012382,0.495042,0.277394,4.328405,-13.607958,-32.977692,,,,,,,
1528106664.559609,-0.679938,0.214296,0.277743,-0.631807,-4.487871,2.968234,-0.614362,-0.212660,-0.759824,0.117155,0.544798,0.245160,0.686268,-13.655355,-33.071075,,,,,,,
1528106664.579659,-0.777875,0.154703,0.312624,-1.334178,-4.569946,3.425889,-0.693385,-0.154086,-0.703898,0.229838,0.465549,0.173609,-2.979148,-13.102551,-33.002930,,,,,,,
1528106664.599765,-0.871027,0.076721,0.335731,-2.063124,-4.419640,3.750731,-0.762739,-0.076645,-0.642145,0.219145,0.505417,0.029902,-7.008033,-11.765772,-32.841492,,,,,,,
1528106664.619845,-0.951866,-0.014255,0.348148,-2.328150,-3.643177,4.093227,-0.814415,0.014255,-0.580104,0.203865,0.593518,-0.184590,-10.460821,-9.793755,-32.184845,,,,,,,
1528106664.639895,-1.008796,-0.113397,0.359044,-2.283854,-2.430278,4.624900,-0.840754,0.113154,-0.529456,0.114573,0.573431,-0.345803,-13.247860,-7.341518,-31.644135,,,,,,,
1528106664.659976,-1.044747,-0.223363,0.370917,-2.388471,-1.646158,5.175936,-0.843312,0.221510,-0.489646,0.034306,0.491731,-0.532266,-14.924293,-4.546497,-30.992279,,,,,,,
1528106664.680057,-1.072588,-0.340052,0.380266,-2.454212,-1.497590,5.285127,-0.828136,0.333536,-0.450488,-0.022847,0.394613,-0.658231,-15.668891,-1.670443,-30.485199,,,,,,,
1528106664.700107,-1.098625,-0.451875,0.390819,-1.947667,-1.485451,5.054811,-0.801192,0.436653,-0.409170,-0.074724,0.308495,-0.699641,-15.817015,1.347845,-29.661438,,,,,,,
1528106664.720187,-1.114000,-0.554058,0.408545,-1.403937,-0.910260,4.825927,-0.763202,0.526143,-0.375087,-0.259152,0.292430,-0.739628,-15.501902,3.970236,-28.588196,,,,,,,
1528106664.740268,-1.104875,-0.652709,0.429512,-1.518558,0.334527,4.772577,-0.709757,0.607341,-0.356898,-0.504904,0.158605,-0.796255,-14.658908,6.124584,-27.829956,,,,,,,
1528106664.760318,-1.074441,-0.750479,0.443867,-1.838135,1.393349,4.392504,-0.643101,0.681989,-0.348290,-0.602245,0.022143,-0.849158,-12.792732,8.094450,-27.295959,,,,,,,
1528106664.780398,-1.032043,-0.835905,0.459297,-1.438099,1.579289,3.686680,-0.575525,0.741903,-0.344012,-0.602393,-0.035711,-0.758573,-10.507243,9.995676,-26.795288,,,,,,,
1528106664.800479,-0.979232,-0.903494,0.485948,-0.900605,1.665497,3.109326,-0.513700,0.785494,-0.345116,-0.621081,-0.063234,-0.623756,-5.949246,11.937199,-26.169403,,,,,,,
1528106664.820529,-0.913351,-0.959263,0.517919,-0.871671,2.230485,2.677226,-0.454447,0.818769,-0.350842,-0.640921,-0.104306,-0.530430,-3.613527,12.338820,-25.760223,,,,,,,
1528106664.840610,-0.836679,-1.011904,0.553866,-0.950167,2.282441,2.660510,-0.393663,0.847843,-0.355226,-0.628264,-0.121692,-0.436736,-1.678514,12.697319,-25.469116,,,,,,,
1528106664.860690,-0.756351,-1.060221,0.602142,-0.659247,1.653081,2.481817,-0.335362,0.872464,-0.355434,-0.565578,-0.194287,-0.384724,0.132681,12.998611,-25.126282,,,,,,,
1528106664.880740,-0.679111,-1.095303,0.663991,-0.186596,0.854522,2.120309,-0.287527,0.889067,-0.356206,-0.584513,-0.223158,-0.286662,1.588934,12.905724,-25.037476,,,,,,,
1528106664.900821,-0.595233,-1.118040,0.739966,0.209785,0.796219,1.972816,-0.245273,0.899245,-0.362207,-0.605267,-0.304625,-0.098517,2.450813,12.414558,-25.012970,,,,,,,
1528106664.920901,-0.512313,-1.133002,0.816807,0.228210,0.553982,1.669892,-0.207811,0.905689,-0.369508,-0.518522,-0.096927,-0.103712,3.516920,12.151299,-25.033478,,,,,,,
1528106664.940951,-0.442147,-1.141003,0.887744,0.432001,0.114778,1.410931,-0.178288,0.909052,-0.376606,-0.455181,-0.025705,-0.025799,3.795084,11.830723,-24.987488,,,,,,,
1528106664.961032,-0.386727,-1.139379,0.953200,0.720034,-0.431039,1.084976,-0.157710,0.908374,-0.387270,-0.357397,-0.068195,0.054797,4.070118,11.560326,-25.212585,,,,,,,
1528106664.981112,-0.351504,-1.129594,1.009980,0.993138,-1.066970,0.876064,-0.147027,0.904239,-0.400910,-0.327491,-0.153629,0.073380,3.885752,10.911907,-25.679504,,,,,,,
1528106665.001162,-0.339370,-1.113385,1.067400,1.293751,-2.610555,0.974961,-0.147012,0.897199,-0.416433,-0.212149,-0.199750,0.060659,2.897423,10.287933,-26.250122,,,,,,,
1528106665.021243,-0.344159,-1.092093,1.140156,1.714718,-3.795160,1.299913,-0.155416,0.887593,-0.433611,-0.154017,-0.231267,0.037554,1.340160,9.398348,-26.666565,,,,,,,
1528106665.041324,-0.345713,-1.065050,1.225197,2.029427,-3.711360,1.495762,-0.164166,0.874813,-0.455792,-0.106891,-0.080379,0.085644,-0.860884,8.243649,-27.291046,,,,,,,
1528106665.061374,-0.334411,-1.040282,1.302078,1.532230,-1.956998,1.220134,-0.166066,0.862547,-0.477944,-0.272334,0.032290,0.121529,-2.232143,7.164476,-27.550720,,,,,,,
1528106665.081454,-0.312546,-1.029851,1.341904,0.391783,0.041284,0.506764,-0.158335,0.857222,-0.489995,-0.359502,0.121736,0.020772,-2.610492,6.733860,-27.776703,,,,,,,
1528106665.101535,-0.293439,-1.028378,1.348129,0.149931,0.965553,-0.002610,-0.149310,0.856463,-0.494139,-0.334928,0.072813,-0.022051,-2.488427,6.592196,-28.047119,,,,,,,
1528106665.121585,-0.270649,-1.018052,1.345462,0.660268,1.420382,-0.409154,-0.140368,0.851087,-0.505908,-0.301267,-0.042341,0.064716,-1.728201,6.457796,-28.329224,,,,,,,
1528106665.141665,-0.255697,-0.996935,1.329305,1.039990,1.325449,-0.741131,-0.137304,0.839811,-0.525225,-0.175212,0.012148,0.020907,-1.207090,5.834587,-28.770630,,,,,,,
1528106665.161746,-0.245898,-0.970487,1.313031,1.212247,1.005081,-0.783629,-0.137511,0.825161,-0.547902,-0.053422,0.015537,0.056355,-0.689102,5.224537,-28.795990,,,,,,,
1528106665.181796,-0.240437,-0.943494,1.301034,1.224444,0.652568,-0.560688,-0.139771,0.809614,-0.570075,0.064057,-0.039320,0.077170,-0.440353,4.616882,-29.239441,,,,,,,
1528106665.201877,-0.234827,-0.919432,1.294154,0.997399,0.414082,-0.408508,-0.141064,0.795257,-0.589630,0.136257,0.021805,0.130539,-0.251833,4.139650,-29.625763,,,,,,,
1528106665.221957,-0.239019,-0.903580,1.293662,0.641477,-0.542414,-0.069229,-0.146500,0.785547,-0.601207,0.311417,-0.105280,0.132625,-0.213533,4.040123,-29.740936,,,,,,,
1528106665.242007,-0.259395,-0.895460,1.304775,0.393953,-2.072638,0.470456,-0.160350,0.780497,-0.604243,0.275340,-0.022776,0.114298,-1.014442,3.559292,-29.969574,,,,,,,
1528106665.262088,-0.293342,-0.893088,1.331370,0.329722,-2.940184,0.875835,-0.181301,0.779012,-0.600223,0.194484,-0.020024,0.150592,-2.580668,3.338789,-30.078461,,,,,,,
1528106665.282168,-0.334980,-0.892370,1.358845,0.260180,-3.290206,0.700745,-0.206312,0.778562,-0.592684,0.082563,-0.057828,0.171877,-4.131227,3.131697,-29.993591,,,,,,,
1528106665.302218,-0.397271,-0.892939,1.370306,-0.002607,-3.791837,0.108296,-0.242636,0.778918,-0.578283,0.103079,-0.072833,0.122335,-6.515202,2.818251,-29.708405,,,,,,,
1528106665.322299,-0.486083,-0.892916,1.364500,-0.059160,-4.447342,-0.252410,-0.292979,0.778904,-0.554499,0.120265,0.026425,0.040339,-8.935345,3.031839,-28.988312,,,,,,,
1528106665.342380,-0.588166,-0.888870,1.361775,0.242480,-5.218017,-0.117109,-0.349706,0.776360,-0.524373,0.089742,-0.043587,-0.107768,-11.863784,2.989626,-28.223755,,,,,,,
1528106665.362430,-0.684092,-0.879954,1.370530,0.741759,-5.051459,-0.034150,-0.402680,0.770710,-0.493813,-0.039809,-0.123691,-0.055610,-14.747520,2.764862,-27.071930,,,,,,,
1528106665.382510,-0.774314,-0.862694,1.389498,1.162459,-5.349715,-0.199802,-0.454770,0.759597,-0.464965,-0.064380,-0.087570,-0.061662,-17.979416,2.379709,-25.742035,,,,,,,
1528106665.402591,-0.876073,-0.843280,1.409186,1.025908,-6.017486,-0.269373,-0.510884,0.746828,-0.425724,0.180150,0.006971,-0.091396,-20.762922,1.849268,-23.876495,,,,,,,
1528106665.422641,-0.993227,-0.833882,1.420189,0.303133,-6.479261,-0.034537,-0.562999,0.740545,-0.366907,0.296016,0.227182,-0.102378,-23.869200,1.397964,-21.409027,,,,,,,
1528106665.442721,-1.120454,-0.833730,1.428195,0.359381,-6.598852,0.154911,-0.605104,0.740444,-0.292554,0.029909,-0.006282,-0.047610,-26.748608,1.365242,-18.557739,,,,,,,
1528106665.462802,-1.243226,-0.830082,1.444392,0.642622,-6.770552,-0.070567,-0.638930,0.737987,-0.217116,-0.038576,-0.164058,-0.078004,-29.263710,1.402222,-15.124725,,,,,,,
1528106665.482852,-1.365084,-0.820102,1.462663,0.734855,-6.694973,-0.424347,-0.667760,0.731216,-0.139337,-0.127314,-0.253539,0.008341,-31.234913,1.137411,-11.505096,,,,,,,
1528106665.502933,-1.479597,-0.814926,1.482477,0.741760,-6.205918,0.117843,-0.683068,0.727675,-0.062468,-0.100548,-0.286925,0.050338,-33.001133,0.763474,-7.786194,,,,,,,
1528106665.523013,-1.548740,-0.824748,1.520670,1.472290,-4.050047,0.835365,-0.678572,0.734377,-0.014969,-0.001558,0.285292,0.078400,-33.849335,1.154291,-4.423462,,,,,,,
1528106665.543063,-1.594726,-0.848483,1.554053,0.957537,-3.226034,1.283192,-0.660928,0.750278,0.015819,-0.010352,0.042568,-0.386287,-34.181675,1.517265,-2.200012,,,,,,,
1528106665.563144,-1.638782,-0.877251,1.575639,0.721887,-2.954324,1.433816,-0.637786,0.768984,0.043427,-0.013826,-0.053729,-0.208512,-34.036835,2.130733,-0.200317,,,,,,,
1528106665.583224,-1.682545,-0.905563,1.592132,0.546348,-2.756247,1.295798,-0.613388,0.786773,0.068832,0.044250,-0.011809,-0.191345,-34.030846,3.202412,1.449768,,,,,,,
1528106665.603293,-1.727486,-0.929394,1.602176,0.422082,-2.568541,1.101622,-0.590984,0.801258,0.093366,0.155468,0.068280,-0.140485,-33.767418,3.797604,2.997650,,,,,,,
1528106665.623374,-1.772825,-0.953653,1.613493,0.669245,-2.796160,1.115127,-0.566932,0.815535,0.116121,0.123847,0.033327,-0.215776,-33.422699,4.660397,4.520386,,,,,,,
1528106665.643424,-1.814400,-0.976333,1.627449,0.623058,-2.482457,0.964334,-0.543521,0.828449,0.135086,0.156040,0.018001,0.052765,-33.185402,5.177706,6.042603,,,,,,,
1528106665.663504,-1.839858,-0.996345,1.634638,0.306753,-1.000087,0.863838,-0.523817,0.839490,0.144442,0.077070,-0.208295,0.347563,-32.375931,5.958216,7.203125,,,,,,,
1528106665.683585,-1.850166,-1.010726,1.638440,0.376594,-0.664171,0.534776,-0.510642,0.847218,0.146489,-0.046289,0.043987,0.160671,-32.271957,6.356836,7.739532,,,,,,,
1528106665.703635,-1.853294,-1.019416,1.660758,0.833423,-1.397501,0.038590,-0.503091,0.851802,0.146028,-0.096106,0.006978,0.037169,-32.056320,6.594561,8.126465,,,,,,,
1528106665.723716,-1.861331,-1.017145,1.691300,0.637271,-1.757122,-0.464507,-0.503753,0.850610,0.150620,0.014205,-0.247171,-0.008927,-31.616379,7.009216,8.906372,,,,,,,
1528106665.743796,-1.862132,-1.024268,1.719420,0.904058,-0.967003,0.417482,-0.497815,0.854334,0.149279,0.108472,-0.129420,0.065107,-31.541039,7.055891,9.673981,,,,,,,
1528106665.763846,-1.860949,-1.032787,1.753405,1.106487,-1.696804,-0.086048,-0.491000,0.858730,0.146602,-0.031873,-0.003185,-0.324535,-31.105122,7.333384,10.186066,,,,,,,
1528106665.783927,-1.842094,-1.031443,1.811767,1.639082,-1.084338,-0.791112,-0.494787,0.858041,0.137628,-0.029947,0.072150,-0.019144,-30.847126,7.713793,10.769592,,,,,,,
1528106665.804007,-1.804948,-1.026264,1.866352,0.920778,0.084473,-0.301030,-0.503874,0.855370,0.120187,-0.066591,0.555519,0.042609,-30.740755,7.544485,11.169922,,,,,,,
1528106665.824057,-1.781673,-1.031131,1.880010,0.225679,0.521316,0.249488,-0.502457,0.857881,0.107556,0.206406,0.260497,0.165027,-30.687450,7.654341,10.849213,,,,,,,
1528106665.844138,-1.777246,-1.032048,1.886412,0.144381,-0.165447,-0.092426,-0.502159,0.858352,0.105169,0.350456,0.013459,0.017023,-30.798090,7.579260,10.670593,,,,,,,
1528106665.864219,-1.763540,-1.034879,1.897040,0.473804,0.409488,0.296824,-0.501166,0.859800,0.097811,0.411185,-0.118681,-0.089418,-30.899405,7.589357,10.541351,,,,,,,
1528106665.884269,-1.741487,-1.056178,1.921073,0.972305,-0.268344,1.336157,-0.485042,0.870481,0.083605,0.411464,-0.155789,-0.221774,-30.762856,7.728584,10.269714,,,,,,,
1528106665.904349,-1.727204,-1.085663,1.957684,1.079811,-1.209903,1.131036,-0.460626,0.884613,0.072639,-0.001944,-0.225998,-0.170387,-30.371014,8.475674,9.945007,,,,,,,
1528106665.924430,-1.733053,-1.111758,1.975412,0.325069,-0.895825,1.297010,-0.437258,0.896479,0.071577,-0.356809,-0.206248,0.055132,-29.979778,9.376493,10.427765,,,,,,,
1528106665.944480,-1.753726,-1.135670,1.974640,0.222187,-1.225722,1.116277,-0.414483,0.906817,0.076678,-0.425010,-0.023882,0.136914,-29.434689,10.227232,11.244019,,,,,,,
1528106665.964560,-1.766380,-1.159957,1.991277,0.701772,-1.457043,1.094049,-0.391755,0.916786,0.077613,-0.230300,-0.004356,0.099221,-29.176811,10.961353,11.651337,,,,,,,
1528106665.984641,-1.764324,-1.179523,2.014704,0.647716,-0.537797,0.758158,-0.374237,0.924424,0.073343,0.082229,-0.054887,0.072806,-28.221138,11.492943,12.048828,,,,,,,
1528106666.004691,-1.735645,-1.193364,2.041921,0.572579,0.586084,0.537661,-0.363529,0.929614,0.060476,0.357884,0.075192,0.247751,-27.739159,12.102079,12.077972,,,,,,,
1528106666.024772,-1.687469,-1.207054,2.070636,0.671358,1.116372,0.607081,-0.353347,0.934572,0.041414,0.124648,0.192625,0.232527,-27.895554,13.076515,11.135986,,,,,,,
1528106666.044852,-1.633770,-1.218496,2.113423,0.779326,0.435333,0.484748,-0.344366,0.938581,0.021715,-0.241968,0.199312,-0.121583,-27.665237,13.383465,10.481506,,,,,,,
1528106666.064902,-1.602186,-1.229486,2.140614,0.332510,0.189871,0.532556,-0.334549,0.942317,0.010505,-0.221649,0.043126,-0.179206,-27.594229,13.737942,10.174194,,,,,,,
1528106666.084983,-1.608119,-1.238632,2.136779,-0.245808,-0.312793,0.417880,-0.325854,0.945339,0.012167,-0.188123,0.159047,-0.258948,-27.466459,13.981262,10.094513,,,,,,,
1528106666.105063,-1.646317,-1.245324,2.109836,-0.432867,-0.848024,0.287429,-0.318835,0.947500,0.024125,-0.183606,0.149683,-0.161835,-27.072134,14.022282,10.493866,,,,,,,
1528106666.125113,-1.695917,-1.248142,2.076610,-0.608439,-0.850399,0.167564,-0.314597,0.948397,0.039569,-0.155038,0.303236,0.033856,-27.008131,14.138206,11.222748,,,,,,,
1528106666.145194,-1.752579,-1.247241,2.031494,-0.789110,-0.629886,-0.080625,-0.312692,0.948111,0.057476,-0.121650,0.378366,0.080921,-26.772427,14.100296,11.664948,,,,,,,
1528106666.165275,-1.805955,-1.233887,1.999115,-0.471297,-1.596920,-0.832366,-0.321465,0.943781,0.077020,-0.229362,0.368704,-0.000543,-26.697327,13.956806,12.528503,,,,,,,
1528106666.185325,-1.870013,-1.213794,1.986508,-0.505357,-3.231906,-0.795823,-0.333932,0.936948,0.103011,-0.209860,-0.066618,-0.336516,-26.296135,13.358528,13.834412,,,,,,,
1528106666.205405,-1.966985,-1.216881,1.925444,-0.938756,-1.329423,1.265381,-0.319719,0.938023,0.133741,0.063280,-0.873570,0.327685,-25.578835,13.213585,15.218933,,,,,,,
1528106666.225486,-2.045676,-1.230681,1.867690,-0.280783,-1.079359,0.835946,-0.296675,0.942716,0.152527,0.175658,-0.059095,0.171860,-25.105850,13.436378,16.049500,,,,,,,
1528106666.245536,-2.031959,-1.246611,1.891713,1.307496,-0.105478,0.347949,-0.285253,0.947910,0.141742,0.230337,-0.048725,0.488508,-24.494263,13.952000,16.021973,,,,,,,
1528106666.265616,-1.938248,-1.264364,1.992515,1.889453,-0.175331,0.138427,-0.281513,0.953416,0.108364,0.104206,0.026748,0.174290,-24.278557,14.431381,15.481323,,,,,,,
1528106666.285697,-1.819213,-1.280852,2.110318,1.870864,0.631799,0.342809,-0.277112,0.958260,0.070291,0.025785,-0.088173,0.097327,-24.287066,15.046814,14.752869,,,,,,,
1528106666.305747,-1.710871,-1.296899,2.209440,1.181759,0.520815,0.622806,-0.267826,0.962724,0.037763,0.031543,-0.126436,-0.215421,-24.191864,15.666130,13.718597,,,,,,,
1528106666.325827,-1.656088,-1.314472,2.262839,0.658203,0.030475,0.909127,-0.252595,0.967328,0.021596,-0.113281,-0.021848,-0.139928,-23.955555,15.977299,13.327148,,,,,,,
1528106666.345908,-1.606998,-1.333700,2.312234,0.669064,0.127039,0.934409,-0.234716,0.972024,0.008501,0.034734,0.003897,-0.007234,-23.754835,16.753677,13.061707,,,,,,,
1528106666.365958,-1.540618,-1.353296,2.378386,0.799646,0.078686,0.989235,-0.215679,0.976440,-0.006511,0.055187,-0.056747,-0.065556,-23.303659,17.100452,12.571381,,,,,,,
1528106666.386039,-1.452847,-1.370838,2.464552,0.815504,0.204178,0.865976,-0.197235,0.980075,-0.023372,0.041412,0.009854,0.045330,-23.070330,17.749653,12.168549,,,,,,,
1528106666.406119,-1.361399,-1.381344,2.554014,0.732208,0.154153,0.529709,-0.184195,0.982108,-0.039144,0.031073,0.087717,-0.010920,-22.846586,18.270340,11.735199,,,,,,,
1528106666.426169,-1.282848,-1.384861,2.631798,0.594741,0.109110,0.228130,-0.177242,0.982764,-0.052496,0.039089,0.133661,-0.023829,-22.462032,18.580753,11.392334,,,,,,,
1528106666.446250,-1.240788,-1.381035,2.671803,0.300001,0.075755,-0.203717,-0.178435,0.982049,-0.061120,0.191817,-0.008279,-0.114035,-22.400520,18.590836,11.280426,,,,,,,
1528106666.466330,-1.183989,-1.376508,2.721189,0.803277,0.691654,0.335558,-0.178793,0.981185,-0.072827,0.029959,-0.382537,0.320264,-22.481039,18.746094,10.872345,,,,,,,
1528106666.486380,-1.103552,-1.382795,2.794101,0.263507,0.338333,0.400905,-0.166851,0.982380,-0.084177,-0.042041,-0.258762,-0.116430,-22.420469,19.028389,10.324890,,,,,,,
1528106666.506461,-1.076791,-1.388826,2.818532,-0.043452,-0.072285,0.427016,-0.159320,0.983489,-0.085801,-0.008328,0.090852,-0.125320,-22.186394,19.303753,10.194977,,,,,,,
1528106666.526542,-1.064700,-1.396734,2.834858,-0.012048,-0.101005,0.420816,-0.151464,0.984889,-0.083948,-0.046183,0.113560,0.046152,-22.105875,19.378929,10.414032,,,,,,,
1528106666.546592,-1.017614,-1.402367,2.876549,0.289962,0.542202,0.413058,-0.142621,0.985849,-0.088067,-0.000934,0.016928,0.143503,-21.916710,19.431660,10.063721,,,,,,,
1528106666.566672,-0.938163,-1.404795,2.942063,0.369846,0.758251,0.438768,-0.133251,0.986253,-0.097694,0.084499,-0.069185,0.067237,-21.856680,19.712227,9.811920,,,,,,,
1528106666.586753,-0.870923,-1.409949,2.998340,0.100021,0.496918,0.507896,-0.122495,0.987092,-0.103149,0.031537,-0.085389,-0.099060,-21.737877,19.873737,9.423035,,,,,,,
1528106666.606802,-0.809090,-1.416629,3.049447,0.087632,0.547218,0.527289,-0.111112,0.988140,-0.105968,-0.002444,-0.044780,0.010295,-21.614670,19.956799,8.985413,,,,,,,
1528106666.626882,-0.750358,-1.423997,3.101328,-0.060332,0.251351,0.491749,-0.099733,0.989244,-0.106979,-0.041258,-0.065782,-0.086670,-21.421795,20.185692,8.818756,,,,,,,
1528106666.646962,-0.732741,-1.432947,3.120471,-0.377519,-0.270877,0.370496,-0.091906,0.990514,-0.102133,0.058047,-0.082341,-0.132547,-21.222790,20.464592,8.734924,,,,,,,
1528106666.667012,-0.755893,-1.445634,3.105667,-0.576580,-0.378433,0.372839,-0.085618,0.992177,-0.090825,0.092393,-0.108037,0.003316,-20.945543,20.501198,9.018921,,,,,,,
1528106666.687093,-0.772940,-1.459911,3.091039,-0.573765,0.034322,0.447937,-0.077252,0.993859,-0.079201,0.090344,-0.159279,0.104516,-20.669685,20.571552,9.424469,,,,,,,
1528106666.707174,-0.804161,-1.472926,3.056352,-0.590446,0.211007,0.243231,-0.070363,0.995215,-0.067771,0.084874,-0.149923,-0.042779,-20.455719,20.775696,9.662994,,,,,,,
1528106666.727223,-0.847230,-1.481250,2.998898,-0.364438,1.056230,0.120087,-0.067005,0.995993,-0.059192,0.249011,-0.105460,0.161441,-20.492109,20.685345,9.567719,,,,,,,
1528106666.747304,-0.808022,-1.486478,3.013333,0.063840,1.332703,0.241324,-0.060869,0.996447,-0.058175,-0.014982,0.138776,0.164910,-20.534065,20.694073,9.322632,,,,,,,
1528106666.767385,-0.685495,-1.489127,3.103842,0.195827,1.615647,0.436062,-0.051632,0.996667,-0.063135,-0.054509,0.137504,0.200053,-20.585159,20.697102,8.552032,,,,,,,
1528106666.787435,-0.539324,-1.487609,-3.052765,0.416772,0.716741,0.320311,-0.042663,0.996542,-0.071282,-0.255585,0.269480,-0.200218,-20.629566,21.066532,8.028442,,,,,,,
1528106666.807516,-0.424435,-1.484285,-2.949443,0.245555,0.512899,0.293562,-0.035574,0.996260,-0.078720,-0.141978,0.212434,-0.071900,-20.535389,21.228016,7.418671,,,,,,,
1528106666.827596,-0.369216,-1.487668,-2.898631,-0.237091,0.067753,0.224243,-0.029959,0.996547,-0.077422,-0.052682,0.151875,-0.138887,-20.612617,21.257248,7.116638,,,,,,,
1528106666.847646,-0.371509,-1.495759,-2.899059,-0.460205,-0.167591,0.076825,-0.027208,0.997186,-0.069836,-0.008253,0.180289,-0.066975,-20.611368,21.152458,7.039062,,,,,,,
1528106666.867727,-0.429446,-1.505128,-2.951767,-0.515544,-0.343832,-0.038267,-0.027314,0.997845,-0.059643,0.036637,0.289066,-0.034275,-20.479902,21.096947,7.370148,,,,,,,
1528106666.887808,-0.549522,-1.512738,-3.061593,-0.479296,-0.663070,-0.189430,-0.030293,0.998315,-0.049463,0.102834,0.348395,-0.005057,-20.438171,21.252335,7.740753,,,,,,,
1528106666.907857,-0.790426,-1.514786,2.994700,-0.476397,-0.708224,-0.631649,-0.039764,0.998432,-0.039366,0.298294,0.297970,0.034804,-20.624855,20.995853,8.132111,,,,,,,
1528106666.927938,-1.104905,-1.509008,2.691584,-0.624986,-0.558215,-0.835961,-0.055145,0.998092,-0.027728,0.237656,0.179826,-0.029768,-20.654091,20.836197,8.516541,,,,,,,
1528106666.948019,-1.371692,-1.498526,2.431718,-0.608904,-0.155981,-0.458956,-0.070760,0.997390,-0.014278,0.115407,-0.129531,0.018687,-20.914982,20.599857,9.131317,,,,,,,
1528106666.968069,-1.485468,-1.501637,2.314693,-0.312176,0.326669,0.337143,-0.068829,0.997609,-0.005887,-0.286426,-0.589925,0.033658,-21.187744,20.213097,9.266846,,,,,,,
1528106666.988148,-1.425636,-1.511397,2.358860,0.404032,0.985750,0.423320,-0.058712,0.998236,-0.008583,-0.041721,-0.520789,0.261467,-21.048029,20.150040,9.592010,,,,,,,
1528106667.008229,-1.179477,-1.510244,2.586841,0.654804,0.909156,0.008545,-0.055912,0.998167,-0.023069,0.133884,-0.032530,0.051725,-20.916576,20.361782,8.812775,,,,,,,
1528106667.028280,-1.015971,-1.505104,2.740426,0.437900,0.277272,-0.010429,-0.055774,0.997843,-0.034567,-0.126507,0.125906,-0.114008,-21.206242,20.449947,8.205902,,,,,,,
1528106667.048361,-0.958869,-1.503201,2.799952,0.092632,-0.262246,0.051961,-0.055264,0.997716,-0.038784,-0.184756,0.171580,-0.184574,-21.123404,20.733150,7.979065,,,,,,,
1528106667.068440,-0.959721,-1.503511,2.804762,-0.021577,-0.244865,-0.008188,-0.055044,0.997737,-0.038560,-0.016641,0.114995,-0.105209,-21.093546,20.687275,7.915253,,,,,,,
1528106667.088490,-0.976958,-1.502876,2.790318,-0.019616,-0.087292,-0.070434,-0.056225,0.997694,-0.037959,0.027996,0.046358,-0.065419,-20.999117,20.721729,7.932953,,,,,,,
1528106667.108572,-0.985916,-1.501989,2.781747,0.020086,0.014842,-0.036210,-0.057302,0.997634,-0.037944,0.013891,-0.015563,-0.035527,-21.136883,20.647839,7.980652,,,,,,,
1528106667.128652,-0.972899,-1.501229,2.793554,0.070626,0.084898,0.005459,-0.057431,0.997581,-0.039113,0.021542,-0.029594,-0.002543,-21.094360,20.626503,7.984558,,,,,,,
1528106667.148701,-0.947754,-1.500714,2.816944,0.084137,0.090365,0.036690,-0.056845,0.997545,-0.040844,0.013556,-0.045626,-0.010441,-21.259861,20.609962,7.916107,,,,,,,
1528106667.168782,-0.917939,-1.500402,2.845281,0.088411,0.065746,0.050518,-0.055844,0.997523,-0.042705,0.002728,-0.024303,-0.032734,-21.319344,20.669926,7.856628,,,,,,,
1528106667.188864,-0.887333,-1.499939,2.875080,0.098399,0.032584,0.041893,-0.054865,0.997491,-0.044683,0.007960,0.023841,-0.055705,-21.355019,20.728748,7.767334,,,,,,,
1528106667.208914,-0.858320,-1.498852,2.903813,0.122556,0.012379,0.011037,-0.054367,0.997413,-0.046964,0.012619,0.052895,-0.047121,-21.220840,20.795578,7.499298,,,,,,,
1528106667.228993,-0.831536,-1.496962,2.930279,0.137841,0.027488,-0.015449,-0.054480,0.997275,-0.049671,0.022482,0.033715,-0.018566,-21.217344,20.540230,7.455811,,,,,,,
1528106667.249074,-0.808064,-1.494439,2.952983,0.147765,0.045773,-0.044124,-0.055119,0.997086,-0.052675,0.045018,0.002166,0.003771,-21.230902,20.612728,7.484558,,,,,,,
1528106667.269125,-0.787305,-1.491558,2.972924,0.149997,0.041499,-0.048401,-0.056049,0.996862,-0.055836,0.042118,-0.025427,-0.003857,-21.156706,20.395691,7.332642,,,,,,,
1528106667.289205,-0.769058,-1.488935,2.990847,0.130784,0.002774,-0.038147,-0.056838,0.996651,-0.058726,0.038741,-0.026497,-0.031240,-21.303833,20.378361,7.312988,,,,,,,
1528106667.309285,-0.756514,-1.486619,3.004044,0.112985,-0.049884,-0.047216,-0.057679,0.996459,-0.061111,0.056138,-0.007369,-0.040649,-21.247272,20.331680,7.096954,,,,,,,
1528106667.329335,-0.750772,-1.484286,3.011310,0.104991,-0.085326,-0.075335,-0.058913,0.996260,-0.063141,0.069976,0.010286,-0.034133,-21.227367,20.366093,7.132904,,,,,,,
1528106667.349416,-0.750224,-1.481246,3.013641,0.130198,-0.086230,-0.113563,-0.060946,0.995993,-0.065392,0.064609,0.015237,-0.017478,-21.378767,20.185364,7.029510,,,,,,,
1528106667.369497,-0.747658,-1.477516,3.018071,0.150693,-0.105377,-0.111281,-0.063308,0.995653,-0.068277,0.036956,0.014281,-0.005423,-21.505314,19.887489,6.976807,,,,,,,
1528106667.389546,-0.744329,-1.474244,3.023845,0.128941,-0.117316,-0.084854,-0.065291,0.995342,-0.070886,0.036100,-0.007534,0.012384,-21.439827,20.101139,6.917664,,,,,,,
1528106667.409627,-0.736102,-1.471129,3.033297,0.159200,-0.003466,-0.073154,-0.066787,0.995037,-0.073719,0.043716,-0.036495,0.047093,-21.556847,19.996044,6.913544,,,,,,,
1528106667.429708,-0.721211,-1.467955,3.046812,0.154092,0.091908,-0.057704,-0.067770,0.994716,-0.077080,0.018850,-0.048534,0.016136,-21.642637,19.903591,6.867859,,,,,,,
1528106667.449758,-0.710926,-1.465676,3.055330,0.090538,0.094672,-0.043476,-0.068451,0.994480,-0.079489,0.014206,-0.034962,-0.005304,-21.558834,19.897015,6.511627,,,,,,,
1528106667.469839,-0.706684,-1.463880,3.057287,0.076557,0.128869,-0.058439,-0.069271,0.994290,-0.081135,0.004223,-0.018551,0.002521,-21.597517,19.666798,6.438110,,,,,,,
1528106667.489919,-0.699476,-1.461922,3.061824,0.111715,0.135560,-0.040852,-0.069939,0.994079,-0.083123,-0.004951,-0.006439,0.015755,-21.754576,19.733341,6.178802,,,,,,,
1528106667.509969,-0.683028,-1.459441,3.075241,0.167056,0.169196,-0.019661,-0.070119,0.993806,-0.086175,0.008214,0.034667,0.053186,-21.605639,19.516144,6.258728,,,,,,,
1528106667.530050,-0.662847,-1.456753,3.090637,0.136299,0.281531,-0.021551,-0.070009,0.993504,-0.089677,-0.008986,0.036922,0.063112,-21.809061,19.515152,5.928009,,,,,,,
1528106667.550100,-0.653908,-1.455062,3.093524,0.043152,0.303362,-0.052525,-0.070227,0.993310,-0.091633,-0.028894,-0.000299,0.039418,-21.819180,19.822754,5.555084,,,,,,,
1528106667.570180,-0.659681,-1.454035,3.082139,-0.014839,0.251472,-0.108097,-0.071380,0.993191,-0.092033,-0.056946,-0.020504,0.042945,-21.819355,19.480042,5.488342,,,,,,,
1528106667.590261,-0.678308,-1.453003,3.058675,-0.055736,0.221142,-0.167623,-0.073724,0.993070,-0.091484,-0.076789,-0.015608,0.094429,-21.926882,19.498394,5.436951,,,,,,,
1528106667.610315,-0.706445,-1.452086,3.025245,-0.093478,0.284111,-0.185925,-0.076860,0.992962,-0.090067,-0.079405,0.001712,0.142923,-21.996946,19.615173,5.416962,,,,,,,
1528106667.630396,-0.733683,-1.451234,2.990090,-0.104279,0.444831,-0.177673,-0.079852,0.992861,-0.088570,-0.098355,0.018721,0.160591,-22.133053,19.410736,5.240265,,,,,,,
1528106667.650476,-0.754701,-1.450218,2.958381,-0.071875,0.558697,-0.165947,-0.082387,0.992739,-0.087606,-0.131069,0.047086,0.130270,-22.366631,19.196648,4.867157,,,,,,,
1528106667.670527,-0.766028,-1.448342,2.935966,0.017296,0.518609,-0.150106,-0.084664,0.992512,-0.088009,-0.127723,0.052578,0.105862,-22.599695,19.010666,4.891510,,,,,,,
1528106667.690607,-0.769534,-1.445616,2.924157,0.074140,0.336787,-0.138653,-0.086855,0.992175,-0.089655,-0.059996,0.039456,0.086192,-22.619207,19.103416,4.724548,,,,,,,
1528106667.710688,-0.775038,-1.442249,2.913717,0.091637,0.203974,-0.179846,-0.089685,0.991749,-0.091562,0.009912,0.036373,0.082758,-22.843433,19.066273,4.435638,,,,,,,
1528106667.730738,-0.786202,-1.437756,2.898470,0.098949,0.215794,-0.251397,-0.093854,0.991163,-0.093703,0.054593,0.021669,0.083099,-22.953306,18.917667,4.428284,,,,,,,
1528106667.750818,-0.803822,-1.432776,2.875495,0.047484,0.281873,-0.289112,-0.099045,0.990490,-0.095461,0.051239,0.000522,0.076342,-22.870108,18.814026,4.374451,,,,,,,
1528106667.770899,-0.824940,-1.428576,2.848275,-0.003352,0.287948,-0.264009,-0.104095,0.989904,-0.096172,0.001693,-0.000417,0.077312,-23.262182,18.944374,4.270142,,,,,,,
1528106667.790949,-0.839400,-1.425262,2.828068,0.036697,0.265748,-0.196222,-0.107915,0.989429,-0.096847,-0.027583,-0.002383,0.104675,-23.593025,18.955708,4.154510,,,,,,,
1528106667.811029,-0.839197,-1.421269,2.823224,0.167564,0.236681,-0.172323,-0.110835,0.988842,-0.099508,0.004359,-0.014583,0.117452,-23.719528,18.865238,3.977264,,,,,,,
1528106667.831110,-0.828808,-1.415597,2.829629,0.262705,0.183759,-0.196079,-0.113929,0.987981,-0.104444,0.041984,-0.004140,0.093442,-23.745472,18.888908,3.817078,,,,,,,
1528106667.851160,-0.819013,-1.408884,2.836211,0.273959,0.153816,-0.220724,-0.117743,0.986921,-0.110082,0.055777,0.012744,0.066045,-23.954575,18.967999,3.773254,,,,,,,
1528106667.871241,-0.813537,-1.402546,2.838945,0.220161,0.137355,-0.204343,-0.121682,0.985879,-0.115020,0.023645,0.033805,0.039138,-23.971687,18.653465,3.441986,,,,,,,
1528106667.891321,-0.811391,-1.398315,2.837229,0.105840,0.251257,-0.139813,-0.124460,0.985162,-0.118153,-0.069158,0.030738,0.015476,-24.134235,18.621052,3.331085,,,,,,,
1528106667.911371,-0.806020,-1.396465,2.834660,0.036662,0.472688,-0.049524,-0.125139,0.984843,-0.120081,-0.178145,-0.031153,0.010981,-24.492205,18.771904,3.375153,,,,,,,
1528106667.931452,-0.798461,-1.397462,2.831578,-0.099208,0.539277,0.043379,-0.123523,0.985015,-0.120338,-0.213528,-0.043838,0.042869,-24.467888,18.593414,3.088684,,,,,,,
1528106667.951532,-0.795333,-1.400147,2.823392,-0.151986,0.581774,0.035483,-0.121256,0.985475,-0.118870,-0.098104,0.021056,0.175603,-24.428148,18.740208,2.949921,,,,,,,
1528106667.971582,-0.791522,-1.402442,2.812911,-0.125108,0.787778,0.014476,-0.119194,0.985862,-0.117743,-0.017464,0.053887,0.313070,-24.456516,19.120251,2.814301,,,,,,,
1528106667.991663,-0.780375,-1.402810,2.807924,0.012202,0.773736,-0.050292,-0.117618,0.985923,-0.118806,0.087634,0.095436,0.284653,-24.574635,19.159420,2.542908,,,,,,,
1528106668.011744,-0.772102,-1.399603,2.803618,0.145494,0.504514,-0.175387,-0.118838,0.985382,-0.122041,0.105289,0.139282,0.118837,-24.538433,19.086494,2.276062,,,,,,,
1528106668.031794,-0.760662,-1.393508,2.808589,0.299548,0.253710,-0.173840,-0.121572,0.984326,-0.127741,-0.044214,0.173878,0.023691,-24.850389,19.280895,2.093079,,,,,,,
1528106668.051874,-0.741394,-1.386600,2.823550,0.368938,0.196342,-0.115525,-0.123679,0.983084,-0.135072,-0.152230,0.108744,0.049684,-25.129204,19.167557,1.757111,,,,,,,
1528106668.071955,-0.721806,-1.379920,2.840250,0.319598,0.141325,-0.092883,-0.125346,0.981838,-0.142395,-0.047566,-0.052593,0.014740,-25.321205,19.572826,1.651550,,,,,,,
1528106668.092005,-0.705363,-1.376317,2.854356,0.168753,0.116703,0.040001,-0.125281,0.981148,-0.147130,0.079963,-0.240090,-0.001154,-25.443829,19.574657,1.712128,,,,,,,
